[{"site_name":"Spittal","lat":55.75686036056238,"lon":-1.988820680270519,"e-coli":710,"enterocci":10},{"site_name":"Bamburgh Castle","lat":55.61095428443268,"lon":-1.707885006088283,"e-coli":109,"enterocci":10},{"site_name":"Seahouses North","lat":55.590183371552676,"lon":-1.6667874584129425,"e-coli":250,"enterocci":10},{"site_name":"Beadnell","lat":55.54875203808919,"lon":-1.6322691340895765,"e-coli":290,"enterocci":10},{"site_name":"Low Newton","lat":55.51320810341574,"lon":-1.6154984400506818,"e-coli":91,"enterocci":10},{"site_name":"Warkworth","lat":55.35120528225858,"lon":-1.5927821866087088,"e-coli":136,"enterocci":10},{"site_name":"Amble Links","lat":55.32564340706406,"lon":-1.5523826100191171,"e-coli":182,"enterocci":10},{"site_name":"Druridge Bay North","lat":55.291106122596894,"lon":-1.5685177559579377,"e-coli":91,"enterocci":10},{"site_name":"Druridge Bay South","lat":55.24024661754322,"lon":-1.5439059190899211,"e-coli":45,"enterocci":10},{"site_name":"Newbiggin North","lat":55.184403578948995,"lon":-1.5103077681241845,"e-coli":127,"enterocci":10},{"site_name":"Newbiggin South","lat":55.17885009353445,"lon":-1.5147724798971756,"e-coli":64,"enterocci":10},{"site_name":"Blyth South Beach","lat":55.10886576194833,"lon":-1.496810541938332,"e-coli":164,"enterocci":10},{"site_name":"Seaton Sluice","lat":55.087221137704915,"lon":-1.4782824742698195,"e-coli":900,"enterocci":10},{"site_name":"Whitley Bay","lat":55.048883344801695,"lon":-1.4451300063266583,"e-coli":64,"enterocci":10},{"site_name":"Tynemouth Cullercoats","lat":55.034772693344124,"lon":-1.4310088153428946,"e-coli":330,"enterocci":23},{"site_name":"Tynemouth Long Sands North","lat":55.03041235169247,"lon":-1.4286613391877652,"e-coli":45,"enterocci":10},{"site_name":"Tynemouth Long Sands South","lat":55.02406954566901,"lon":-1.423261222911236,"e-coli":210,"enterocci":10},{"site_name":"Tynemouth King Edwards Bay","lat":55.01931342807931,"lon":-1.418981544497381,"e-coli":220,"enterocci":10},{"site_name":"South Shields","lat":54.99973849086751,"lon":-1.4090719988210323,"e-coli":210,"enterocci":10},{"site_name":"Marsden","lat":54.97800916465412,"lon":-1.3765806513294174,"e-coli":173,"enterocci":10},{"site_name":"Seaburn - Sunderland","lat":54.937517127654154,"lon":-1.3662811290804662,"e-coli":91,"enterocci":10},{"site_name":"Roker - Sunderland","lat":54.9257377083057,"lon":-1.364905842816366,"e-coli":310,"enterocci":10},{"site_name":"Seaham Hall Beach","lat":54.85044082834642,"lon":-1.3414806967819846,"e-coli":280,"enterocci":10},{"site_name":"Seaham Beach","lat":54.84750182923017,"lon":-1.3381023595457457,"e-coli":136,"enterocci":10},{"site_name":"Crimdon","lat":54.728069476696845,"lon":-1.2487150346748495,"e-coli":36,"enterocci":10},{"site_name":"Seaton Carew North","lat":54.66465777111886,"lon":-1.1860257142290849,"e-coli":82,"enterocci":10},{"site_name":"Seaton Carew Centre","lat":54.659903802242944,"lon":-1.1807105601251198,"e-coli":360,"enterocci":10},{"site_name":"Seaton Carew North Gare","lat":54.649620855705166,"lon":-1.1646444378077978,"e-coli":18,"enterocci":10},{"site_name":"Redcar Coatham","lat":54.62205845797149,"lon":-1.081576072167545,"e-coli":82,"enterocci":14},{"site_name":"Redcar Lifeboat Station","lat":54.62004736870759,"lon":-1.0607450207196971,"e-coli":118,"enterocci":10},{"site_name":"Redcar Granville","lat":54.6173390505506,"lon":-1.0522591721106451,"e-coli":230,"enterocci":14},{"site_name":"Redcar Stray","lat":54.6055111453976,"lon":-1.0339561776739234,"e-coli":173,"enterocci":10},{"site_name":"Marske Sands","lat":54.59998286748177,"lon":-1.0170597412400246,"e-coli":450,"enterocci":10},{"site_name":"Saltburn","lat":54.586782875657654,"lon":-0.9697627910758917,"e-coli":155,"enterocci":18},{"site_name":"Staithes","lat":54.558623773694954,"lon":-0.7890190324461233,"e-coli":2900,"enterocci":375},{"site_name":"Runswick Bay","lat":54.53179912411114,"lon":-0.7486900784091048,"e-coli":155,"enterocci":10},{"site_name":"Sandsend","lat":54.50136987035275,"lon":-0.6673416571024215,"e-coli":1700,"enterocci":10},{"site_name":"Whitby","lat":54.49168743292312,"lon":-0.6245661324683123,"e-coli":82,"enterocci":10},{"site_name":"Robin Hoods Bay","lat":54.430144417621094,"lon":-0.5318501915818172,"e-coli":300,"enterocci":10},{"site_name":"Scarborough North Bay","lat":54.293355367855,"lon":-0.40719194322297325,"e-coli":82,"enterocci":10},{"site_name":"Scarborough South Bay","lat":54.28202412724711,"lon":-0.3952173400476924,"e-coli":240,"enterocci":41},{"site_name":"Cayton Bay","lat":54.244773580249266,"lon":-0.362930168309255,"e-coli":73,"enterocci":10},{"site_name":"Filey","lat":54.20822775011939,"lon":-0.28421013006365703,"e-coli":945,"enterocci":10},{"site_name":"Reighton","lat":54.16910837986071,"lon":-0.24979794209826503,"e-coli":1800,"enterocci":10},{"site_name":"Flamborough South Landing","lat":54.104231200315176,"lon":-0.11840241766126974,"e-coli":580,"enterocci":10},{"site_name":"Danes Dyke, Flamborough","lat":54.10402918685214,"lon":-0.14184485066569877,"e-coli":173,"enterocci":10},{"site_name":"Bridlington North Beach","lat":54.08674685640057,"lon":-0.18267551095789913,"e-coli":45,"enterocci":10},{"site_name":"Bridlington South Beach","lat":54.07555419944282,"lon":-0.19991711410136734,"e-coli":230,"enterocci":18},{"site_name":"Wilsthorpe","lat":54.066219910036395,"lon":-0.207488045530319,"e-coli":220,"enterocci":10},{"site_name":"Fraisthorpe","lat":54.04854580253028,"lon":-0.214007687364271,"e-coli":500,"enterocci":10},{"site_name":"Skipsea","lat":53.96193067318313,"lon":-0.19016753612383458,"e-coli":136,"enterocci":10},{"site_name":"Hornsea","lat":53.91408881613035,"lon":-0.16047529390336407,"e-coli":55,"enterocci":10},{"site_name":"Tunstall","lat":53.760992766363266,"lon":-0.002159026122877222,"e-coli":240,"enterocci":10},{"site_name":"Withernsea","lat":53.73080993226958,"lon":0.03602339658049329,"e-coli":210,"enterocci":10},{"site_name":"Cleethorpes","lat":53.55765978125305,"lon":-0.022050303060612834,"e-coli":4800,"enterocci":27},{"site_name":"Humberston Fitties","lat":53.53504463521899,"lon":0.007407801369240457,"e-coli":230,"enterocci":10},{"site_name":"Mablethorpe Town","lat":53.34416283957621,"lon":0.26472804369523795,"e-coli":250,"enterocci":10},{"site_name":"Sutton-on-Sea","lat":53.314397590109174,"lon":0.28484544520649485,"e-coli":1000,"enterocci":10},{"site_name":"Moggs Eye","lat":53.273398512295095,"lon":0.3216695498309294,"e-coli":680,"enterocci":10},{"site_name":"Anderby","lat":53.260429573318,"lon":0.3287938652307938,"e-coli":600,"enterocci":10},{"site_name":"Chapel St Leonards","lat":53.223442461325874,"lon":0.3429359567458201,"e-coli":410,"enterocci":10},{"site_name":"Ingoldmells South","lat":53.18736419550652,"lon":0.3573889598718266,"e-coli":964,"enterocci":10},{"site_name":"Skegness","lat":53.143689266295816,"lon":0.35266308755458203,"e-coli":45,"enterocci":10},{"site_name":"Heacham","lat":52.90919404634263,"lon":0.4715124021451108,"e-coli":460,"enterocci":10},{"site_name":"Hunstanton Main Beach","lat":52.93681154552258,"lon":0.48380174370297335,"e-coli":220,"enterocci":10},{"site_name":"Hunstanton (Old Hunstanton)","lat":52.95363189022968,"lon":0.4963786598005133,"e-coli":164,"enterocci":10},{"site_name":"Wells","lat":52.97357220301467,"lon":0.8490678019925352,"e-coli":290,"enterocci":10},{"site_name":"Sheringham","lat":52.94592644699536,"lon":1.2084948979071408,"e-coli":18,"enterocci":10},{"site_name":"East Runton","lat":52.937051284632155,"lon":1.2759676757855807,"e-coli":145,"enterocci":10},{"site_name":"Cromer","lat":52.93400890350114,"lon":1.300416062824969,"e-coli":200,"enterocci":10},{"site_name":"Mundesley","lat":52.876932190991354,"lon":1.441755442076049,"e-coli":118,"enterocci":10},{"site_name":"Sea Palling","lat":52.790628881801936,"lon":1.6039181072068338,"e-coli":36,"enterocci":10},{"site_name":"Hemsby","lat":52.69525721305211,"lon":1.7100877464176838,"e-coli":27,"enterocci":10},{"site_name":"Caister Point","lat":52.64622198017801,"lon":1.7374150911697461,"e-coli":36,"enterocci":10},{"site_name":"Great Yarmouth North","lat":52.632247584090514,"lon":1.7427126092800178,"e-coli":64,"enterocci":10},{"site_name":"Great Yarmouth Pier","lat":52.60527458833639,"lon":1.739508592405998,"e-coli":100,"enterocci":10},{"site_name":"Great Yarmouth South","lat":52.596303967444264,"lon":1.738743736870142,"e-coli":410,"enterocci":10},{"site_name":"Gorleston Beach","lat":52.56671413142408,"lon":1.732666239673132,"e-coli":240,"enterocci":10},{"site_name":"Lowestoft (North of Claremont Pier)","lat":52.468295641904554,"lon":1.748758217076385,"e-coli":218,"enterocci":10},{"site_name":"Lowestoft (South of Claremont Pier)","lat":52.4638759406047,"lon":1.745171820198507,"e-coli":155,"enterocci":10},{"site_name":"Southwold The Pier","lat":52.330785510258764,"lon":1.6869230104897701,"e-coli":55,"enterocci":10},{"site_name":"Southwold The Denes","lat":52.31935092219092,"lon":1.6786322108007818,"e-coli":127,"enterocci":10},{"site_name":"Felixstowe North","lat":51.960329646446766,"lon":1.354998627597604,"e-coli":55,"enterocci":10},{"site_name":"Felixstowe South","lat":51.954319469477454,"lon":1.3414771494724695,"e-coli":118,"enterocci":10},{"site_name":"Dovercourt","lat":51.928703615426514,"lon":1.2736663835166417,"e-coli":64,"enterocci":10},{"site_name":"Walton","lat":51.847046384400755,"lon":1.2732518553074486,"e-coli":320,"enterocci":14},{"site_name":"Frinton","lat":51.828454590872575,"lon":1.2463541117947996,"e-coli":230,"enterocci":10},{"site_name":"Holland","lat":51.813190312959044,"lon":1.2258111063921242,"e-coli":155,"enterocci":10},{"site_name":"Clacton","lat":51.79308840379637,"lon":1.171288354636316,"e-coli":200,"enterocci":10},{"site_name":"Clacton (Groyne 41)","lat":51.78502368530157,"lon":1.1534650103310016,"e-coli":1336,"enterocci":60},{"site_name":"Jaywick","lat":51.77261889655827,"lon":1.1127305170051816,"e-coli":36,"enterocci":10},{"site_name":"Clacton Beach Martello Tower","lat":51.77998616908153,"lon":1.1400632637168713,"e-coli":127,"enterocci":18},{"site_name":"Brightlingsea","lat":51.80570066678543,"lon":1.0105075080119075,"e-coli":1218,"enterocci":10},{"site_name":"West Mersea","lat":51.77038835880829,"lon":0.9302073998409546,"e-coli":1500,"enterocci":10},{"site_name":"Shoebury East","lat":51.53172226710693,"lon":0.8038120013278217,"e-coli":520,"enterocci":10},{"site_name":"Shoeburyness","lat":51.52298429232623,"lon":0.7741521362092484,"e-coli":340,"enterocci":18},{"site_name":"Southend Thorpe Bay","lat":51.52886499596041,"lon":0.7536021465399761,"e-coli":155,"enterocci":18},{"site_name":"Southend Jubilee","lat":51.52777497326724,"lon":0.7232572283503415,"e-coli":136,"enterocci":14},{"site_name":"Southend Three Shells","lat":51.53298168355826,"lon":0.7120319172689221,"e-coli":164,"enterocci":10},{"site_name":"Southend Westcliff Bay","lat":51.535358155754125,"lon":0.6869366156890925,"e-coli":270,"enterocci":10},{"site_name":"Southend Chalkwell","lat":51.53738721571737,"lon":0.6729230797091729,"e-coli":82,"enterocci":10},{"site_name":"Leigh Bell Wharf","lat":51.539019235809654,"lon":0.6525395195058123,"e-coli":400,"enterocci":10},{"site_name":"Sheerness","lat":51.44325941650842,"lon":0.7602056492064533,"e-coli":91,"enterocci":10},{"site_name":"Minster Leas","lat":51.432933696300196,"lon":0.8052962327773043,"e-coli":191,"enterocci":14},{"site_name":"Leysdown","lat":51.40014429673003,"lon":0.9217980407195078,"e-coli":64,"enterocci":10},{"site_name":"West Beach, Whitstable","lat":51.3543240905893,"lon":1.0117333415542669,"e-coli":210,"enterocci":10},{"site_name":"Tankerton","lat":51.36543239513894,"lon":1.0457969945437193,"e-coli":700,"enterocci":10},{"site_name":"Herne Bay Central","lat":51.37203566336578,"lon":1.1185192903371717,"e-coli":220,"enterocci":14},{"site_name":"Herne Bay","lat":51.37435277635728,"lon":1.1395153945294216,"e-coli":370,"enterocci":10},{"site_name":"Minnis Bay, Birchington","lat":51.38029278466025,"lon":1.2836573813146215,"e-coli":390,"enterocci":10},{"site_name":"West Bay, Westgate","lat":51.38319147869809,"lon":1.332279145139941,"e-coli":410,"enterocci":10},{"site_name":"St Mildred's Bay, Westgate","lat":51.38488120323829,"lon":1.3427378760861288,"e-coli":220,"enterocci":10},{"site_name":"Westbrook Bay, Margate","lat":51.38613178855574,"lon":1.3631421022002645,"e-coli":2100,"enterocci":18},{"site_name":"Margate The Bay","lat":51.38769344282643,"lon":1.3757641276505352,"e-coli":118,"enterocci":10},{"site_name":"Margate Fulsam Rock","lat":51.39267214827444,"lon":1.3865117922979262,"e-coli":182,"enterocci":10},{"site_name":"Walpole Bay, Margate","lat":51.39224424918542,"lon":1.3991039292691605,"e-coli":2900,"enterocci":23},{"site_name":"Botany Bay, Broadstairs","lat":51.38943451271029,"lon":1.4352694716385594,"e-coli":330,"enterocci":10},{"site_name":"Joss Bay, Broadstairs","lat":51.379211915061674,"lon":1.446117487374503,"e-coli":250,"enterocci":10},{"site_name":"Broadstairs, Stone Bay","lat":51.36542835800411,"lon":1.445297263893194,"e-coli":670,"enterocci":10},{"site_name":"Broadstairs, Viking Bay","lat":51.35772548661002,"lon":1.4429515886980713,"e-coli":670,"enterocci":14},{"site_name":"Ramsgate Sands","lat":51.33222338375597,"lon":1.424885061268022,"e-coli":2600,"enterocci":10},{"site_name":"Ramsgate Western Undercliffe","lat":51.326596743934275,"lon":1.4062460022542946,"e-coli":118,"enterocci":10},{"site_name":"Sandwich Bay","lat":51.28259038909981,"lon":1.3796352820466087,"e-coli":1300,"enterocci":10},{"site_name":"Deal Castle","lat":51.22485465874829,"lon":1.404896910007616,"e-coli":91,"enterocci":10},{"site_name":"St Margaret`s Bay","lat":51.15061590284887,"lon":1.3857090448574874,"e-coli":91,"enterocci":10},{"site_name":"Folkestone","lat":51.08195941043095,"lon":1.1912825286691093,"e-coli":118,"enterocci":10},{"site_name":"Sandgate","lat":51.070804244454784,"lon":1.1217705709503818,"e-coli":710,"enterocci":10},{"site_name":"Hythe","lat":51.06468069743144,"lon":1.0813882974888223,"e-coli":127,"enterocci":10},{"site_name":"Dymchurch","lat":51.02461212662334,"lon":0.9965769404458646,"e-coli":220,"enterocci":10},{"site_name":"St Mary's Bay (Kent)","lat":51.01058682267606,"lon":0.9822697890100823,"e-coli":310,"enterocci":10},{"site_name":"Littlestone","lat":50.97678871271844,"lon":0.9672797936825877,"e-coli":1173,"enterocci":27},{"site_name":"Camber","lat":50.93320282516672,"lon":0.7963423760067326,"e-coli":510,"enterocci":14},{"site_name":"Winchelsea","lat":50.90640371077716,"lon":0.7181167354945136,"e-coli":450,"enterocci":32},{"site_name":"Hastings","lat":50.853710440089365,"lon":0.5829052160787205,"e-coli":280,"enterocci":27},{"site_name":"St Leonards","lat":50.84990584025971,"lon":0.5514376716411221,"e-coli":127,"enterocci":10},{"site_name":"Bexhill","lat":50.83652323402448,"lon":0.4703431225296719,"e-coli":730,"enterocci":18},{"site_name":"Norman`s Bay","lat":50.82281356945851,"lon":0.3866667883328873,"e-coli":155,"enterocci":10},{"site_name":"Pevensey Bay","lat":50.809979261945735,"lon":0.35033963870127993,"e-coli":164,"enterocci":10},{"site_name":"Eastbourne","lat":50.76095129562616,"lon":0.28709063152717806,"e-coli":164,"enterocci":10},{"site_name":"Birling Gap","lat":50.742584860215445,"lon":0.20067982920680086,"e-coli":155,"enterocci":10},{"site_name":"Seaford","lat":50.771306674029105,"lon":0.094987365885537,"e-coli":290,"enterocci":10},{"site_name":"Newhaven","lat":50.78142452809416,"lon":0.05302316703551741,"e-coli":0,"enterocci":0},{"site_name":"Saltdean","lat":50.799314059515666,"lon":-0.04170090095377586,"e-coli":330,"enterocci":10},{"site_name":"Brighton Kemptown","lat":50.81595294346654,"lon":-0.12215095497678832,"e-coli":210,"enterocci":14},{"site_name":"Brighton Central","lat":50.82026252581825,"lon":-0.14587248151863125,"e-coli":240,"enterocci":10},{"site_name":"Hove","lat":50.823217958297036,"lon":-0.1667122010030346,"e-coli":18,"enterocci":10},{"site_name":"Southwick","lat":50.82874093024134,"lon":-0.23560711290768052,"e-coli":18,"enterocci":10},{"site_name":"Shoreham Beach","lat":50.82874093024134,"lon":-0.23560711290768052,"e-coli":109,"enterocci":10},{"site_name":"Lancing, Beach Green","lat":50.819870222659866,"lon":-0.32194785812655496,"e-coli":36,"enterocci":10},{"site_name":"Worthing","lat":50.807268099269564,"lon":-0.38484960266620105,"e-coli":55,"enterocci":10},{"site_name":"Littlehampton","lat":50.802283923865595,"lon":-0.538858053050947,"e-coli":470,"enterocci":10},{"site_name":"Middleton-on-sea","lat":50.79031052715787,"lon":-0.6039277143056329,"e-coli":82,"enterocci":10},{"site_name":"Felpham","lat":50.78629597171985,"lon":-0.6525651578497879,"e-coli":955,"enterocci":10},{"site_name":"Bognor Regis East","lat":50.78235259426537,"lon":-0.6694171231213251,"e-coli":209,"enterocci":10},{"site_name":"Bognor Regis (Aldwick)","lat":50.779246284784406,"lon":-0.6913491239710645,"e-coli":900,"enterocci":10},{"site_name":"Pagham","lat":50.76754038075678,"lon":-0.7364868476983498,"e-coli":127,"enterocci":10},{"site_name":"Selsey","lat":50.73630041912495,"lon":-0.7703181953658252,"e-coli":430,"enterocci":10},{"site_name":"Bracklesham Bay","lat":50.76100340438156,"lon":-0.8605561474097827,"e-coli":55,"enterocci":10},{"site_name":"West Wittering","lat":50.77650486160252,"lon":-0.9121187326639235,"e-coli":73,"enterocci":10},{"site_name":"Eastoke","lat":50.78060390106065,"lon":-0.9673430605928398,"e-coli":10,"enterocci":10},{"site_name":"Beachlands Central","lat":50.783583657583215,"lon":-0.9892647053727256,"e-coli":155,"enterocci":10},{"site_name":"Beachlands West","lat":50.78359755768927,"lon":-1.0013219298856084,"e-coli":45,"enterocci":10},{"site_name":"Eastney","lat":50.7846298066663,"lon":-1.0451334828311167,"e-coli":45,"enterocci":10},{"site_name":"Southsea East","lat":50.77866449613585,"lon":-1.07943783427667,"e-coli":510,"enterocci":10},{"site_name":"Stokes Bay","lat":50.77758392818387,"lon":-1.1503760714485622,"e-coli":73,"enterocci":10},{"site_name":"Lee-on-Solent","lat":50.80096736462658,"lon":-1.2042732198211878,"e-coli":173,"enterocci":10},{"site_name":"Hillhead","lat":50.81344736360323,"lon":-1.2253809309915584,"e-coli":260,"enterocci":10},{"site_name":"Calshot","lat":50.809314076026226,"lon":-1.3181573172399395,"e-coli":1000,"enterocci":10},{"site_name":"Lepe","lat":50.78428743531618,"lon":-1.3545234979347645,"e-coli":100,"enterocci":10},{"site_name":"Milford-on-sea","lat":50.72498310766144,"lon":-1.6106047234257934,"e-coli":450,"enterocci":10},{"site_name":"Christchurch Bay","lat":50.734326860764995,"lon":-1.6627014635477022,"e-coli":250,"enterocci":10},{"site_name":"Highcliffe","lat":50.736987685963236,"lon":-1.6984779290513867,"e-coli":164,"enterocci":10},{"site_name":"Compton Bay","lat":50.65607617395693,"lon":-1.4683084908100326,"e-coli":82,"enterocci":10},{"site_name":"Totland Bay","lat":50.68082774686484,"lon":-1.5456777747114427,"e-coli":10,"enterocci":10},{"site_name":"Colwell Bay","lat":50.689468448233484,"lon":-1.538459462216769,"e-coli":55,"enterocci":10},{"site_name":"Gurnard","lat":50.76073976616654,"lon":-1.3250732256081348,"e-coli":210,"enterocci":10},{"site_name":"Cowes","lat":50.767842072932446,"lon":-1.3093727239068416,"e-coli":136,"enterocci":10},{"site_name":"Ryde","lat":50.73081713435419,"lon":-1.14980514985234,"e-coli":640,"enterocci":10},{"site_name":"Seagrove","lat":50.716314448697446,"lon":-1.1068645579926568,"e-coli":1500,"enterocci":10},{"site_name":"St Helens","lat":50.698598047700926,"lon":-1.0986344653480835,"e-coli":164,"enterocci":10},{"site_name":"Bembridge","lat":50.68621218994442,"lon":-1.069682356351773,"e-coli":900,"enterocci":10},{"site_name":"Whitecliff Bay","lat":50.67194505297562,"lon":-1.094262554027766,"e-coli":320,"enterocci":10},{"site_name":"Yaverland","lat":50.66180940301645,"lon":-1.1332243720428588,"e-coli":420,"enterocci":10},{"site_name":"Sandown","lat":50.65495892949587,"lon":-1.1506231973855936,"e-coli":855,"enterocci":10},{"site_name":"Shanklin","lat":50.62699997786424,"lon":-1.173168043672361,"e-coli":5500,"enterocci":10},{"site_name":"Ventnor","lat":50.59311769768289,"lon":-1.2099570613728354,"e-coli":200,"enterocci":10},{"site_name":"Christchurch Highcliffe Castle","lat":50.73564296460553,"lon":-1.7144424653080472,"e-coli":420,"enterocci":10},{"site_name":"Christchurch Friar`s Cliff","lat":50.73205455007911,"lon":-1.7293987556976884,"e-coli":660,"enterocci":10},{"site_name":"Christchurch Avon Beach","lat":50.729258616772164,"lon":-1.733651229137165,"e-coli":1009,"enterocci":10},{"site_name":"Christchurch Mudeford Sandbank East","lat":50.71924183638328,"lon":-1.7421364142639324,"e-coli":300,"enterocci":10},{"site_name":"Bournemouth Hengistbury West","lat":50.71683820731479,"lon":-1.7710881796776328,"e-coli":1300,"enterocci":10},{"site_name":"Bournemouth Southbourne","lat":50.71898112340503,"lon":-1.791716731819547,"e-coli":220,"enterocci":10},{"site_name":"Bournemouth Fisherman`s Walk","lat":50.72071390505228,"lon":-1.816867720924088,"e-coli":109,"enterocci":10},{"site_name":"Bournemouth Boscombe Pier","lat":50.71945839188122,"lon":-1.8440279271823785,"e-coli":290,"enterocci":10},{"site_name":"Bournemouth Pier","lat":50.71547683618621,"lon":-1.8758683585415228,"e-coli":330,"enterocci":18},{"site_name":"Bournemouth Durley Chine","lat":50.713061784257256,"lon":-1.888749431376711,"e-coli":430,"enterocci":10},{"site_name":"Bournemouth Alum Chine","lat":50.71112551438061,"lon":-1.8954106184063348,"e-coli":100,"enterocci":10},{"site_name":"Poole Branksome Chine","lat":50.705903872275925,"lon":-1.9099518400530908,"e-coli":650,"enterocci":10},{"site_name":"Poole Canford Cliffs Chine","lat":50.70046195003266,"lon":-1.920511279729088,"e-coli":45,"enterocci":10},{"site_name":"Poole Shore Road Beach","lat":50.69465834414812,"lon":-1.929369836550239,"e-coli":36,"enterocci":10},{"site_name":"Poole Sandbanks Peninsular","lat":50.68869173847783,"lon":-1.937377044329117,"e-coli":18,"enterocci":10},{"site_name":"Poole Harbour Lake","lat":50.713840219741385,"lon":-2.0252585435624972,"e-coli":82,"enterocci":10},{"site_name":"Poole Harbour Rockley Sands","lat":50.719321546883066,"lon":-2.040135271304383,"e-coli":210,"enterocci":14},{"site_name":"Shell Bay North","lat":50.678445577712786,"lon":-1.9487980769702613,"e-coli":18,"enterocci":10},{"site_name":"Studland Knoll House","lat":50.65208950503661,"lon":-1.9528438332382487,"e-coli":45,"enterocci":10},{"site_name":"Swanage Central","lat":50.613431213605864,"lon":-1.9575181116784752,"e-coli":36,"enterocci":10},{"site_name":"Kimmeridge Bay","lat":50.61148494679279,"lon":-2.131413149019416,"e-coli":27,"enterocci":10},{"site_name":"Lulworth Cove","lat":50.61892692315197,"lon":-2.249336582360638,"e-coli":109,"enterocci":10},{"site_name":"Durdle Door East","lat":50.62200064060429,"lon":-2.2741478321099597,"e-coli":10,"enterocci":10},{"site_name":"Durdle Door West","lat":50.62193965514742,"lon":-2.277116086204046,"e-coli":10,"enterocci":10},{"site_name":"Ringstead Bay","lat":50.631046865097716,"lon":-2.3513568695404214,"e-coli":73,"enterocci":10},{"site_name":"Bowleaze Cove","lat":50.636198130980695,"lon":-2.422239408953148,"e-coli":55,"enterocci":10},{"site_name":"Church Ope Cove","lat":50.537983052889544,"lon":-2.428078307030726,"e-coli":55,"enterocci":10},{"site_name":"Weymouth Lodmoor","lat":50.625881310211696,"lon":-2.442165593938682,"e-coli":45,"enterocci":10},{"site_name":"Weymouth Central","lat":50.614457654305184,"lon":-2.4522349387173974,"e-coli":100,"enterocci":10},{"site_name":"Portland Harbour Castle Cove","lat":50.596316748801144,"lon":-2.4596904395714274,"e-coli":440,"enterocci":10},{"site_name":"Portland Harbour Sandsfoot Castle","lat":50.59424204555384,"lon":-2.463555419868727,"e-coli":380,"enterocci":10},{"site_name":"Hive","lat":50.69625646512607,"lon":-2.723225719966531,"e-coli":36,"enterocci":10},{"site_name":"West Bay (West)","lat":50.71097970094667,"lon":-2.766536774971506,"e-coli":610,"enterocci":10},{"site_name":"Eypemouth","lat":50.71610045052067,"lon":-2.784878705923707,"e-coli":600,"enterocci":10},{"site_name":"Seatown","lat":50.72210167953337,"lon":-2.8248154417230764,"e-coli":2500,"enterocci":10},{"site_name":"Charmouth West","lat":50.73355160862185,"lon":-2.9045532831255136,"e-coli":10000,"enterocci":10},{"site_name":"Lyme Regis Church Cliff Beach","lat":50.725039414626636,"lon":-2.9303159546165394,"e-coli":8400,"enterocci":23},{"site_name":"Lyme Regis Front Beach","lat":50.72249760918456,"lon":-2.9377740138795705,"e-coli":10000,"enterocci":10},{"site_name":"Seaton (Devon)","lat":50.703368151141916,"lon":-3.0705065980375994,"e-coli":91,"enterocci":10},{"site_name":"Beer","lat":50.69654277589119,"lon":-3.089876580872023,"e-coli":155,"enterocci":10},{"site_name":"Sidmouth Town","lat":50.677677886753784,"lon":-3.2381645604693428,"e-coli":136,"enterocci":10},{"site_name":"Sidmouth Jacobs Ladder","lat":50.675262693921745,"lon":-3.247908932363759,"e-coli":82,"enterocci":10},{"site_name":"Ladram Bay","lat":50.65859698746823,"lon":-3.279540323238144,"e-coli":91,"enterocci":10},{"site_name":"Budleigh Salterton","lat":50.62933320642799,"lon":-3.3182361478146163,"e-coli":2600,"enterocci":10},{"site_name":"Sandy Bay","lat":50.60987332492482,"lon":-3.368006766925927,"e-coli":750,"enterocci":10},{"site_name":"Exmouth","lat":50.61109172471002,"lon":-3.4016804395685627,"e-coli":845,"enterocci":10},{"site_name":"Dawlish Warren","lat":50.599665540934744,"lon":-3.438927680829965,"e-coli":36,"enterocci":10},{"site_name":"Dawlish Town","lat":50.58174431249963,"lon":-3.4625351236050785,"e-coli":720,"enterocci":10},{"site_name":"Dawlish Coryton Cove","lat":50.57483376456181,"lon":-3.4685351661809207,"e-coli":109,"enterocci":10},{"site_name":"Teignmouth Holcombe","lat":50.56189608630869,"lon":-3.474627709658199,"e-coli":200,"enterocci":14},{"site_name":"Teignmouth Town","lat":50.545377911517164,"lon":-3.493448752385667,"e-coli":680,"enterocci":18},{"site_name":"Shaldon","lat":50.53983112209014,"lon":-3.502362006972556,"e-coli":260,"enterocci":10},{"site_name":"Ness Cove","lat":50.53610792063069,"lon":-3.498165484533502,"e-coli":991,"enterocci":10},{"site_name":"Maidencombe","lat":50.506448221314734,"lon":-3.513373945025086,"e-coli":191,"enterocci":10},{"site_name":"Watcombe","lat":50.495631035415755,"lon":-3.51528407712889,"e-coli":45,"enterocci":10},{"site_name":"Oddicombe","lat":50.482460675331915,"lon":-3.5148768394202072,"e-coli":420,"enterocci":10},{"site_name":"Babbacombe","lat":50.47906932151536,"lon":-3.5093984021761546,"e-coli":1700,"enterocci":10},{"site_name":"Anstey's Cove (Torquay)","lat":50.47183813854143,"lon":-3.5010790772364317,"e-coli":64,"enterocci":10},{"site_name":"Meadfoot","lat":50.45756849212926,"lon":-3.508474310470397,"e-coli":136,"enterocci":10},{"site_name":"Beacon Cove","lat":50.457480573253356,"lon":-3.5235034716927807,"e-coli":250,"enterocci":10},{"site_name":"Torre Abbey","lat":50.4624519448154,"lon":-3.5359775081737377,"e-coli":460,"enterocci":18},{"site_name":"Hollicombe","lat":50.44880955627638,"lon":-3.553508761852174,"e-coli":800,"enterocci":23},{"site_name":"Paignton Preston Sands","lat":50.44445682667688,"lon":-3.5561830498700275,"e-coli":4200,"enterocci":18},{"site_name":"Paignton Paignton Sands","lat":50.435067875383375,"lon":-3.5588322127962546,"e-coli":490,"enterocci":36},{"site_name":"Goodrington","lat":50.42354717435539,"lon":-3.5594815554396546,"e-coli":164,"enterocci":10},{"site_name":"Broadsands","lat":50.406015305139064,"lon":-3.554332210237001,"e-coli":2600,"enterocci":19},{"site_name":"Breakwater Beach (Shoalstone)","lat":50.40007829105662,"lon":-3.504495323506593,"e-coli":450,"enterocci":10},{"site_name":"St Mary's Bay (Devon)","lat":50.38525012041458,"lon":-3.5036039591179566,"e-coli":64,"enterocci":10},{"site_name":"Dartmouth Castle and Sugary Cove","lat":50.34207249279382,"lon":-3.5654823831297318,"e-coli":27,"enterocci":10},{"site_name":"Blackpool Sands","lat":50.31943361505733,"lon":-3.609689723383652,"e-coli":45,"enterocci":10},{"site_name":"Slapton Sands Monument","lat":50.285930444448525,"lon":-3.6450562999383522,"e-coli":18,"enterocci":10},{"site_name":"Slapton Sands Torcross","lat":50.26622357709071,"lon":-3.6520944974597658,"e-coli":45,"enterocci":10},{"site_name":"Mill Bay","lat":50.229996128107565,"lon":-3.766936916491115,"e-coli":27,"enterocci":10},{"site_name":"Salcombe North Sands","lat":50.230148121367066,"lon":-3.7805431572504804,"e-coli":64,"enterocci":10},{"site_name":"Salcombe South Sands","lat":50.22604928361665,"lon":-3.783895496178778,"e-coli":109,"enterocci":10},{"site_name":"Hope Cove","lat":50.242642600096694,"lon":-3.859099940131574,"e-coli":36,"enterocci":10},{"site_name":"Thurlestone South","lat":50.26041268523987,"lon":-3.8581362436107,"e-coli":64,"enterocci":10},{"site_name":"Thurlestone North","lat":50.26395201775628,"lon":-3.861781834910963,"e-coli":45,"enterocci":10},{"site_name":"Bantham","lat":50.27896844113724,"lon":-3.8787895596939044,"e-coli":310,"enterocci":10},{"site_name":"Bigbury-on-Sea South","lat":50.281672664225184,"lon":-3.8950381043696978,"e-coli":109,"enterocci":10},{"site_name":"Bigbury-on-Sea North","lat":50.28317093844189,"lon":-3.8969224354077836,"e-coli":290,"enterocci":10},{"site_name":"Challaborough","lat":50.28765827165331,"lon":-3.8975220462128233,"e-coli":1009,"enterocci":10},{"site_name":"Mothecombe","lat":50.30958873126624,"lon":-3.9527486133882435,"e-coli":480,"enterocci":10},{"site_name":"Wembury","lat":50.31799191832023,"lon":-4.085139216334619,"e-coli":800,"enterocci":10},{"site_name":"Bovisand","lat":50.33553913746723,"lon":-4.119493746275604,"e-coli":182,"enterocci":10},{"site_name":"Plymouth Hoe East","lat":50.36392951719242,"lon":-4.140866161664847,"e-coli":100,"enterocci":10},{"site_name":"Plymouth Hoe West","lat":50.36402377463425,"lon":-4.145510623534568,"e-coli":330,"enterocci":10},{"site_name":"Kingsand","lat":50.333605354059515,"lon":-4.199365296782568,"e-coli":670,"enterocci":10},{"site_name":"Cawsand","lat":50.33086949108714,"lon":-4.2013466651753495,"e-coli":191,"enterocci":10},{"site_name":"Whitsand Bay (Sharrow)","lat":50.347605393911024,"lon":-4.259612094029042,"e-coli":18,"enterocci":10},{"site_name":"Portwrinkle","lat":50.361457522179755,"lon":-4.307654849805063,"e-coli":1300,"enterocci":10},{"site_name":"Downderry","lat":50.36099691973927,"lon":-4.370765156135222,"e-coli":55,"enterocci":10},{"site_name":"Seaton (Cornwall)","lat":50.364364755745,"lon":-4.386401015619906,"e-coli":1100,"enterocci":10},{"site_name":"Millendreath","lat":50.36108099836222,"lon":-4.43629300528845,"e-coli":191,"enterocci":10},{"site_name":"East Looe","lat":50.35257680128568,"lon":-4.451462350560056,"e-coli":845,"enterocci":32},{"site_name":"Readymoney","lat":50.32952943858742,"lon":-4.645174403480399,"e-coli":155,"enterocci":18},{"site_name":"Polkerris","lat":50.33787229001641,"lon":-4.681477087960982,"e-coli":91,"enterocci":10},{"site_name":"Par","lat":50.34696501801958,"lon":-4.692813595454316,"e-coli":145,"enterocci":10},{"site_name":"Shorthorn","lat":50.337628004580495,"lon":-4.72292422199055,"e-coli":73,"enterocci":10},{"site_name":"Crinnis","lat":50.33611330730728,"lon":-4.733799805514063,"e-coli":64,"enterocci":10},{"site_name":"Charlestown","lat":50.331197818557484,"lon":-4.7552992508907055,"e-coli":36,"enterocci":10},{"site_name":"Duporth","lat":50.3274447524937,"lon":-4.761826845054951,"e-coli":45,"enterocci":10},{"site_name":"Porthpean","lat":50.323575172351084,"lon":-4.76567705326991,"e-coli":36,"enterocci":10},{"site_name":"Pentewan","lat":50.287551254517794,"lon":-4.782540753975254,"e-coli":91,"enterocci":10},{"site_name":"Polstreath","lat":50.2743793578524,"lon":-4.784158444623166,"e-coli":45,"enterocci":10},{"site_name":"Portmellon","lat":50.26184294150102,"lon":-4.785531838688056,"e-coli":2700,"enterocci":10},{"site_name":"Gorran Haven Little Perhaver","lat":50.2408358067071,"lon":-4.787532397000742,"e-coli":73,"enterocci":10},{"site_name":"Gorran Haven (Vault)","lat":50.23489709438753,"lon":-4.7876065540725845,"e-coli":10,"enterocci":10},{"site_name":"Porthluney","lat":50.236786029065925,"lon":-4.843256039198994,"e-coli":580,"enterocci":14},{"site_name":"Pendower","lat":50.20566304327573,"lon":-4.947787128220848,"e-coli":690,"enterocci":10},{"site_name":"Porthcurnick","lat":50.186141827320405,"lon":-4.972503716596119,"e-coli":260,"enterocci":10},{"site_name":"Gyllyngvase","lat":50.14463165944223,"lon":-5.067357362840764,"e-coli":10,"enterocci":10},{"site_name":"Swanpool","lat":50.140630418964726,"lon":-5.075779655902684,"e-coli":440,"enterocci":10},{"site_name":"Maenporth","lat":50.12495552656912,"lon":-5.093524480266251,"e-coli":210,"enterocci":10},{"site_name":"Porthallow","lat":50.068570416146166,"lon":-5.079270178322034,"e-coli":36,"enterocci":10},{"site_name":"Porthoustock","lat":50.05556602976418,"lon":-5.0641849041050575,"e-coli":10,"enterocci":10},{"site_name":"Coverack","lat":50.02437476221661,"lon":-5.097107152180305,"e-coli":27,"enterocci":10},{"site_name":"Kennack Sands","lat":50.00512769242374,"lon":-5.163565779356661,"e-coli":10,"enterocci":10},{"site_name":"Polurrian Cove","lat":50.023343106928905,"lon":-5.256224662575436,"e-coli":10,"enterocci":10},{"site_name":"Poldhu Cove","lat":50.03354770251546,"lon":-5.261245128805054,"e-coli":360,"enterocci":10},{"site_name":"Church Cove","lat":50.03857893463326,"lon":-5.267871982147689,"e-coli":230,"enterocci":10},{"site_name":"Porthleven West","lat":50.0810587373285,"lon":-5.3148009945333925,"e-coli":210,"enterocci":10},{"site_name":"Praa Sands East","lat":50.099275957074916,"lon":-5.378716748191267,"e-coli":10,"enterocci":10},{"site_name":"Praa Sands West","lat":50.103239071168524,"lon":-5.390885045304822,"e-coli":27,"enterocci":10},{"site_name":"Perranuthnoe","lat":50.1122458664883,"lon":-5.442445427135798,"e-coli":55,"enterocci":10},{"site_name":"Mounts Bay Marazion","lat":50.126227389902276,"lon":-5.48039414351351,"e-coli":1418,"enterocci":10},{"site_name":"Mounts Bay Heliport","lat":50.126350831296335,"lon":-5.51804788826347,"e-coli":136,"enterocci":10},{"site_name":"Mounts Bay Penzance","lat":50.114663705159025,"lon":-5.535518562155528,"e-coli":145,"enterocci":10},{"site_name":"Mounts Bay Wherry Town","lat":50.10956348045735,"lon":-5.545802594214502,"e-coli":210,"enterocci":10},{"site_name":"Porthcurno","lat":50.04290826237805,"lon":-5.650382550897537,"e-coli":18,"enterocci":10},{"site_name":"Sennen","lat":50.07875006144123,"lon":-5.697566471756813,"e-coli":82,"enterocci":10},{"site_name":"Porthmeor","lat":50.215293365407526,"lon":-5.483372491750175,"e-coli":173,"enterocci":10},{"site_name":"Porthgwidden","lat":50.217204540239536,"lon":-5.4766415745365284,"e-coli":2400,"enterocci":10},{"site_name":"Porthminster","lat":50.2086681143179,"lon":-5.476300918926569,"e-coli":82,"enterocci":10},{"site_name":"Carbis Bay Station Beach","lat":50.198752313299956,"lon":-5.464928096411265,"e-coli":73,"enterocci":10},{"site_name":"Carbis Bay Porth Kidney Sands","lat":50.19411494275105,"lon":-5.439366720004314,"e-coli":330,"enterocci":10},{"site_name":"The Towans (Hayle)","lat":50.204761596744625,"lon":-5.417004448538598,"e-coli":155,"enterocci":10},{"site_name":"The Towans (Godrevy)","lat":50.227989443415886,"lon":-5.391880320477282,"e-coli":1036,"enterocci":10},{"site_name":"Portreath","lat":50.26122615153777,"lon":-5.293622525425943,"e-coli":55,"enterocci":10},{"site_name":"Porthtowan","lat":50.2875147975704,"lon":-5.24240559337158,"e-coli":145,"enterocci":10},{"site_name":"Chapel Porth","lat":50.30041942417959,"lon":-5.23482876712922,"e-coli":210,"enterocci":10},{"site_name":"Trevaunance Cove","lat":50.32039598281909,"lon":-5.201185674305083,"e-coli":36,"enterocci":10},{"site_name":"Perranporth Village End","lat":50.34936531992807,"lon":-5.155052854871491,"e-coli":64,"enterocci":10},{"site_name":"Perranporth Penhale Sands","lat":50.359360977477984,"lon":-5.151356869459332,"e-coli":36,"enterocci":10},{"site_name":"Holywell Bay","lat":50.39190446153055,"lon":-5.145494995657339,"e-coli":55,"enterocci":10},{"site_name":"Crantock","lat":50.40682701745168,"lon":-5.119176250687989,"e-coli":173,"enterocci":10},{"site_name":"Fistral","lat":50.41772525692583,"lon":-5.098492205090848,"e-coli":36,"enterocci":10},{"site_name":"Towan","lat":50.41828614327851,"lon":-5.084167898423973,"e-coli":173,"enterocci":10},{"site_name":"Great Western","lat":50.41596912081174,"lon":-5.076555626040263,"e-coli":310,"enterocci":10},{"site_name":"Tolcarne","lat":50.41767107349106,"lon":-5.073427778115935,"e-coli":340,"enterocci":10},{"site_name":"Lusty Glaze","lat":50.42176267843824,"lon":-5.064963030145973,"e-coli":82,"enterocci":10},{"site_name":"Porth","lat":50.424671462551125,"lon":-5.056983883856254,"e-coli":500,"enterocci":23},{"site_name":"Watergate Bay","lat":50.443760067078145,"lon":-5.042578275207968,"e-coli":73,"enterocci":10},{"site_name":"Mawgan Porth","lat":50.467478328940715,"lon":-5.033390228790615,"e-coli":600,"enterocci":10},{"site_name":"Porthcothan","lat":50.5090248763118,"lon":-5.023499505383183,"e-coli":118,"enterocci":10},{"site_name":"Treyarnon Bay","lat":50.52613899184804,"lon":-5.022618493602479,"e-coli":73,"enterocci":10},{"site_name":"Constantine Bay","lat":50.53324452189211,"lon":-5.022649556516628,"e-coli":55,"enterocci":10},{"site_name":"Mother Ivey`s Bay","lat":50.54413605849599,"lon":-5.015441085511349,"e-coli":18,"enterocci":10},{"site_name":"Harlyn Bay","lat":50.54028791026717,"lon":-4.997268769893008,"e-coli":240,"enterocci":10},{"site_name":"Trevone Bay","lat":50.54574480524783,"lon":-4.977427572887578,"e-coli":1200,"enterocci":10},{"site_name":"Rock","lat":50.5450635273055,"lon":-4.926281808106751,"e-coli":250,"enterocci":10},{"site_name":"Daymer Bay","lat":50.561340751600895,"lon":-4.926443301308909,"e-coli":100,"enterocci":10},{"site_name":"Polzeath","lat":50.57481573224717,"lon":-4.916402144662906,"e-coli":109,"enterocci":10},{"site_name":"Trebarwith Strand","lat":50.64497432086641,"lon":-4.761598591114551,"e-coli":64,"enterocci":10},{"site_name":"Crackington Haven","lat":50.74192921268346,"lon":-4.633769639443458,"e-coli":127,"enterocci":10},{"site_name":"Widemouth Sand","lat":50.79309493309279,"lon":-4.557604141172892,"e-coli":18,"enterocci":10},{"site_name":"Bude Summerleaze","lat":50.83117341977805,"lon":-4.552016843720565,"e-coli":164,"enterocci":10},{"site_name":"Bude Crooklets","lat":50.8358075995301,"lon":-4.553974182909245,"e-coli":100,"enterocci":10},{"site_name":"Bude Sandy Mouth","lat":50.86093035689202,"lon":-4.5567684754736435,"e-coli":18,"enterocci":10},{"site_name":"Hartland Quay","lat":50.99553734349282,"lon":-4.533663758119625,"e-coli":18,"enterocci":10},{"site_name":"Westward Ho!","lat":51.043767460213864,"lon":-4.236151171450125,"e-coli":45,"enterocci":10},{"site_name":"Instow","lat":51.05291436189699,"lon":-4.181912265175013,"e-coli":2800,"enterocci":10},{"site_name":"Saunton Sands","lat":51.1165457856315,"lon":-4.222346317260589,"e-coli":1009,"enterocci":10},{"site_name":"Croyde Bay","lat":51.13152639437116,"lon":-4.2385026834534285,"e-coli":773,"enterocci":10},{"site_name":"Putsborough","lat":51.14580218618497,"lon":-4.220892227535419,"e-coli":27,"enterocci":10},{"site_name":"Woolacombe Village","lat":51.171645741414686,"lon":-4.209688007509219,"e-coli":630,"enterocci":10},{"site_name":"Combesgate Beach, Woolacombe","lat":51.178248884759476,"lon":-4.212436182209177,"e-coli":630,"enterocci":10},{"site_name":"Ilfracombe Tunnels Beach","lat":51.210451850662565,"lon":-4.127242447145391,"e-coli":2100,"enterocci":18},{"site_name":"Ilfracombe Wildersmouth","lat":51.21052010250927,"lon":-4.121504172377889,"e-coli":800,"enterocci":173},{"site_name":"Ilfracombe Hele","lat":51.210858063824396,"lon":-4.097279617857095,"e-coli":2200,"enterocci":27},{"site_name":"Combe Martin","lat":51.20731664889948,"lon":-4.038162700421728,"e-coli":370,"enterocci":27},{"site_name":"Lynmouth","lat":51.231690365924926,"lon":-3.8244805869667995,"e-coli":173,"enterocci":10},{"site_name":"Porlock Weir","lat":51.219011386517096,"lon":-3.626253050463592,"e-coli":10,"enterocci":10},{"site_name":"Minehead Terminus","lat":51.207573429922654,"lon":-3.467044270817288,"e-coli":480,"enterocci":10},{"site_name":"Dunster North West","lat":51.201203395793854,"lon":-3.4368831846097634,"e-coli":1300,"enterocci":27},{"site_name":"Blue Anchor West","lat":51.182410432219754,"lon":-3.4011870955569847,"e-coli":300,"enterocci":23},{"site_name":"Burnham Jetty North","lat":51.235657755889434,"lon":-2.9994369502742644,"e-coli":440,"enterocci":41},{"site_name":"Berrow North of Unity Farm","lat":51.28173755936728,"lon":-3.0177432623201415,"e-coli":136,"enterocci":23},{"site_name":"Brean","lat":51.321229682553735,"lon":-3.0116429288704256,"e-coli":800,"enterocci":18},{"site_name":"Weston-super-Mare Uphill Slipway","lat":51.32471215634797,"lon":-2.9903069120643844,"e-coli":260,"enterocci":55},{"site_name":"Weston Main","lat":51.341252974556916,"lon":-2.9833701868713454,"e-coli":127,"enterocci":18},{"site_name":"Weston-super-Mare Sand Bay","lat":51.364479235331444,"lon":-2.9660850064689632,"e-coli":500,"enterocci":10},{"site_name":"Clevedon Beach","lat":51.43769255486423,"lon":-2.8658271190636473,"e-coli":10000,"enterocci":18},{"site_name":"Jackson's Bay Barry Island","lat":51.39135198113475,"lon":-3.263273001630422,"e-coli":410,"enterocci":18},{"site_name":"Whitmore Bay Barry Island","lat":51.38835867283481,"lon":-3.273969432134848,"e-coli":210,"enterocci":10},{"site_name":"Cold Knap Barry","lat":51.38994988088968,"lon":-3.296951932491133,"e-coli":136,"enterocci":10},{"site_name":"Southerndown","lat":51.446364910100286,"lon":-3.606344237429682,"e-coli":200,"enterocci":10},{"site_name":"Trecco Bay Porthcawl","lat":51.47691646229921,"lon":-3.684804311763436,"e-coli":200,"enterocci":10},{"site_name":"Sandy Bay Porthcawl","lat":51.47825704968458,"lon":-3.6941133755413214,"e-coli":300,"enterocci":10},{"site_name":"Rest Bay Porthcawl","lat":51.488745798562334,"lon":-3.7240881348392416,"e-coli":82,"enterocci":10},{"site_name":"Aberafan","lat":51.59332606374738,"lon":-3.8176580792767436,"e-coli":350,"enterocci":18},{"site_name":"Swansea Bay","lat":51.61167015893135,"lon":-3.960671597004417,"e-coli":230,"enterocci":10},{"site_name":"Bracelet Bay","lat":51.567531106662166,"lon":-3.9785686356408516,"e-coli":18,"enterocci":10},{"site_name":"Limeslade Bay","lat":51.56618922942709,"lon":-3.9845416914411906,"e-coli":2600,"enterocci":10},{"site_name":"Langland Bay","lat":51.56814303147673,"lon":-4.0108022164697665,"e-coli":18,"enterocci":10},{"site_name":"Caswell Bay","lat":51.569712937419006,"lon":-4.032935308063251,"e-coli":27,"enterocci":10},{"site_name":"Oxwich Bay","lat":51.5570004681755,"lon":-4.160531818502249,"e-coli":2000,"enterocci":10},{"site_name":"Port Eynon Bay","lat":51.543974714892634,"lon":-4.208546876329404,"e-coli":200,"enterocci":10},{"site_name":"Rhossili","lat":51.594095538767185,"lon":-4.295038824611379,"e-coli":82,"enterocci":10},{"site_name":"Pembrey","lat":51.673998644970126,"lon":-4.314221387961683,"e-coli":145,"enterocci":10},{"site_name":"Pendine","lat":51.74161874917033,"lon":-4.553217533331362,"e-coli":410,"enterocci":10},{"site_name":"Amroth Central","lat":51.73293468248783,"lon":-4.654069320196659,"e-coli":182,"enterocci":10},{"site_name":"Wiseman's Bridge","lat":51.72320526447525,"lon":-4.684864188890884,"e-coli":200,"enterocci":10},{"site_name":"Coppet Hall","lat":51.71598561364768,"lon":-4.693412889888658,"e-coli":55,"enterocci":10},{"site_name":"Saundersfoot","lat":51.71135720122366,"lon":-4.6975821633774855,"e-coli":36,"enterocci":10},{"site_name":"Tenby North","lat":51.67526464656617,"lon":-4.701568944456917,"e-coli":127,"enterocci":10},{"site_name":"Castle Beach, Tenby","lat":51.67168723346063,"lon":-4.695223103590604,"e-coli":100,"enterocci":10},{"site_name":"Tenby South","lat":51.667821910389954,"lon":-4.703353158056218,"e-coli":700,"enterocci":10},{"site_name":"Penally","lat":51.65776738042251,"lon":-4.715030788297383,"e-coli":73,"enterocci":10},{"site_name":"Lydstep","lat":51.65186157216029,"lon":-4.759627671726978,"e-coli":27,"enterocci":10},{"site_name":"Manorbier","lat":51.642845554403685,"lon":-4.803818955777056,"e-coli":91,"enterocci":10},{"site_name":"Freshwater East","lat":51.64469698633251,"lon":-4.865299081321215,"e-coli":27,"enterocci":10},{"site_name":"Barafundle","lat":51.61829233814793,"lon":-4.90401594473788,"e-coli":36,"enterocci":10},{"site_name":"Broad Haven (South)","lat":51.60811320047374,"lon":-4.92240384128498,"e-coli":18,"enterocci":10},{"site_name":"Freshwater West","lat":51.656535118497615,"lon":-5.059364330426511,"e-coli":118,"enterocci":10},{"site_name":"West Angle","lat":51.6862669618636,"lon":-5.106719112874781,"e-coli":290,"enterocci":14},{"site_name":"Sandy Haven","lat":51.722985448623,"lon":-5.100780317200534,"e-coli":10000,"enterocci":10},{"site_name":"Dale","lat":51.70869192261316,"lon":-5.168540478231539,"e-coli":127,"enterocci":18},{"site_name":"Marloes Sands","lat":51.72211899450308,"lon":-5.210304288777826,"e-coli":18,"enterocci":10},{"site_name":"Little Haven","lat":51.77395330054576,"lon":-5.1080017279250445,"e-coli":1300,"enterocci":10},{"site_name":"Broad Haven (Central)","lat":51.7818756254257,"lon":-5.102615822814499,"e-coli":10000,"enterocci":10},{"site_name":"Druidston Haven","lat":51.81275261580648,"lon":-5.103968816156568,"e-coli":55,"enterocci":10},{"site_name":"Nolton Haven","lat":51.82460701687665,"lon":-5.108383929946818,"e-coli":5800,"enterocci":10},{"site_name":"Newgale","lat":51.85227099451592,"lon":-5.123377092001418,"e-coli":27,"enterocci":10},{"site_name":"Caerfai","lat":51.87286047847093,"lon":-5.2536016664081995,"e-coli":55,"enterocci":10},{"site_name":"Whitesands","lat":51.89611434013067,"lon":-5.295771609855381,"e-coli":73,"enterocci":10},{"site_name":"Abereiddy","lat":51.93616940873833,"lon":-5.205858865621513,"e-coli":27,"enterocci":10},{"site_name":"Abermawr","lat":51.96981684510088,"lon":-5.083716633106975,"e-coli":18,"enterocci":10},{"site_name":"Newport North","lat":52.02842922461829,"lon":-4.838475363300566,"e-coli":91,"enterocci":10},{"site_name":"Poppit West","lat":52.10578573008498,"lon":-4.69975105173817,"e-coli":164,"enterocci":10},{"site_name":"Mwnt","lat":52.13587355145117,"lon":-4.640731818985094,"e-coli":360,"enterocci":10},{"site_name":"Aberporth","lat":52.13499080168478,"lon":-4.547239132154238,"e-coli":3400,"enterocci":10},{"site_name":"Tresaith","lat":52.135407560218376,"lon":-4.517801633202546,"e-coli":270,"enterocci":10},{"site_name":"Penbryn","lat":52.14408183793191,"lon":-4.496410242952708,"e-coli":740,"enterocci":10},{"site_name":"Llangrannog","lat":52.160083890807506,"lon":-4.4714549356745845,"e-coli":173,"enterocci":18},{"site_name":"Cilborth","lat":52.16207014711552,"lon":-4.47021978592822,"e-coli":82,"enterocci":10},{"site_name":"New Quay North","lat":52.215941267792786,"lon":-4.358784041755846,"e-coli":2000,"enterocci":14},{"site_name":"New Quay Harbour","lat":52.21420374882237,"lon":-4.357535454818061,"e-coli":260,"enterocci":10},{"site_name":"Traeth Gwyn New Quay","lat":52.210239017284124,"lon":-4.347122886687927,"e-coli":400,"enterocci":10},{"site_name":"Llanrhystud","lat":52.29984230381644,"lon":-4.16574901082993,"e-coli":145,"enterocci":10},{"site_name":"Aberystwyth South","lat":52.411329123299616,"lon":-4.0899702505848,"e-coli":1064,"enterocci":10},{"site_name":"Aberystwyth North","lat":52.41665266436213,"lon":-4.085869236586004,"e-coli":155,"enterocci":14},{"site_name":"Clarach South","lat":52.43342088197273,"lon":-4.079805900826052,"e-coli":300,"enterocci":10},{"site_name":"Borth","lat":52.48117006395439,"lon":-4.053841256851436,"e-coli":136,"enterocci":10},{"site_name":"Aberdyfi","lat":52.54187415576272,"lon":-4.0552147540948695,"e-coli":520,"enterocci":10},{"site_name":"Tywyn","lat":52.58200636471612,"lon":-4.102097900994113,"e-coli":245,"enterocci":10},{"site_name":"Fairbourne","lat":52.69739026433104,"lon":-4.059688344053719,"e-coli":240,"enterocci":10},{"site_name":"Barmouth","lat":52.72279637118621,"lon":-4.061922302099525,"e-coli":45,"enterocci":10},{"site_name":"Tal-y-Bont","lat":52.768706178838315,"lon":-4.1098976292457845,"e-coli":64,"enterocci":10},{"site_name":"Dyffryn (Llanendwyn)","lat":52.781726400023786,"lon":-4.125949214409161,"e-coli":27,"enterocci":10},{"site_name":"Llandanwg","lat":52.83202731597904,"lon":-4.1287024373073296,"e-coli":127,"enterocci":10},{"site_name":"Harlech","lat":52.86169046213949,"lon":-4.129114699817073,"e-coli":250,"enterocci":10},{"site_name":"Craig Du Beach Central","lat":52.90513068974706,"lon":-4.177938831067397,"e-coli":240,"enterocci":10},{"site_name":"Criccieth","lat":52.919180743127214,"lon":-4.227540304373662,"e-coli":220,"enterocci":10},{"site_name":"Pwllheli","lat":52.87935907918306,"lon":-4.422171031970586,"e-coli":27,"enterocci":10},{"site_name":"Abersoch","lat":52.820661585904716,"lon":-4.4993510685127855,"e-coli":155,"enterocci":10},{"site_name":"Porth Neigwl","lat":52.8068625441955,"lon":-4.551976471522086,"e-coli":36,"enterocci":10},{"site_name":"Aberdaron","lat":52.802878782858805,"lon":-4.711242165923032,"e-coli":36,"enterocci":10},{"site_name":"Morfa Nefyn","lat":52.93802451643843,"lon":-4.55745942665924,"e-coli":2100,"enterocci":10},{"site_name":"Morfa Dinlle","lat":53.08442391887111,"lon":-4.338252396963575,"e-coli":64,"enterocci":10},{"site_name":"Llanddwyn","lat":53.140611258446114,"lon":-4.388404992123427,"e-coli":118,"enterocci":10},{"site_name":"Aberffraw","lat":53.18027907711583,"lon":-4.466938886745905,"e-coli":1200,"enterocci":10},{"site_name":"Rhosneigr","lat":53.21961373090851,"lon":-4.512193980043818,"e-coli":27,"enterocci":10},{"site_name":"Silver Bay Rhoscolyn","lat":53.24591861688063,"lon":-4.560503754463796,"e-coli":2800,"enterocci":10},{"site_name":"Borth Wen","lat":53.24385735969556,"lon":-4.589309864182578,"e-coli":2200,"enterocci":10},{"site_name":"Trearddur Bay","lat":53.27839117481991,"lon":-4.617800652905201,"e-coli":91,"enterocci":10},{"site_name":"Porth Dafarch","lat":53.28653190286229,"lon":-4.652208524547217,"e-coli":780,"enterocci":10},{"site_name":"Church Bay","lat":53.374021560731144,"lon":-4.557360791616587,"e-coli":36,"enterocci":10},{"site_name":"Cemaes","lat":53.41423367852779,"lon":-4.449164599691085,"e-coli":1300,"enterocci":18},{"site_name":"Traeth Lligwy","lat":53.363176804370234,"lon":-4.257151072296117,"e-coli":173,"enterocci":10},{"site_name":"Benllech","lat":53.319408962967096,"lon":-4.2130988735513375,"e-coli":164,"enterocci":10},{"site_name":"St Davids - Benllech","lat":53.31484675449966,"lon":-4.207007677529043,"e-coli":82,"enterocci":10},{"site_name":"Llanddona","lat":53.3083596886578,"lon":-4.153685397732926,"e-coli":127,"enterocci":10},{"site_name":"Llanfairfechan","lat":53.26282037207383,"lon":-3.980159998160079,"e-coli":230,"enterocci":10},{"site_name":"Penmaenmawr","lat":53.273809636553835,"lon":-3.9239759885067524,"e-coli":230,"enterocci":10},{"site_name":"Llandudno West Shore","lat":53.31734198110416,"lon":-3.8546223040222887,"e-coli":82,"enterocci":10},{"site_name":"Llandudno North Shore","lat":53.32529865434196,"lon":-3.828389705760969,"e-coli":1064,"enterocci":27},{"site_name":"Colwyn Bay","lat":53.30560884372412,"lon":-3.7327835830229326,"e-coli":400,"enterocci":10},{"site_name":"Abergele (Pensarn)","lat":53.297405436608045,"lon":-3.585157598863429,"e-coli":530,"enterocci":18},{"site_name":"Kinmel Bay (Sandy Cove)","lat":53.312439562344316,"lon":-3.535429375667559,"e-coli":500,"enterocci":10},{"site_name":"Marine Lake, Rhyl","lat":53.31287887170619,"lon":-3.5009207264607003,"e-coli":91,"enterocci":10},{"site_name":"Rhyl","lat":53.33086893068096,"lon":-3.500050662461777,"e-coli":360,"enterocci":27},{"site_name":"Rhyl East","lat":53.32608435813606,"lon":-3.4880207663500893,"e-coli":1236,"enterocci":14},{"site_name":"Prestatyn","lat":53.34628278785297,"lon":-3.4157162059174273,"e-coli":200,"enterocci":10},{"site_name":"West Kirby","lat":53.370478911142925,"lon":-3.193165765400772,"e-coli":210,"enterocci":10},{"site_name":"Meols","lat":53.40657620675474,"lon":-3.159727459355197,"e-coli":370,"enterocci":18},{"site_name":"Moreton","lat":53.41774795364976,"lon":-3.1194049402618216,"e-coli":109,"enterocci":10},{"site_name":"Wallasey","lat":53.43357850936403,"lon":-3.0772829213687776,"e-coli":136,"enterocci":18},{"site_name":"Formby","lat":53.548209952603656,"lon":-3.1062433359154817,"e-coli":240,"enterocci":10},{"site_name":"Ainsdale","lat":53.607919297384115,"lon":-3.0639721724373405,"e-coli":350,"enterocci":10},{"site_name":"Southport","lat":53.65318310761873,"lon":-3.027285707913135,"e-coli":490,"enterocci":14},{"site_name":"St Annes","lat":53.7491126261353,"lon":-3.0403771548739504,"e-coli":1000,"enterocci":10},{"site_name":"St Annes North","lat":53.75971727652425,"lon":-3.0508782174741307,"e-coli":700,"enterocci":23},{"site_name":"Blackpool South","lat":53.790628187372164,"lon":-3.0590890393938146,"e-coli":740,"enterocci":10},{"site_name":"Blackpool Central","lat":53.80264419657546,"lon":-3.056203228011841,"e-coli":1209,"enterocci":18},{"site_name":"Blackpool North","lat":53.81611455495823,"lon":-3.056572383192921,"e-coli":710,"enterocci":36},{"site_name":"Bispham","lat":53.84889209052204,"lon":-3.0548745495601533,"e-coli":270,"enterocci":10},{"site_name":"Cleveleys","lat":53.88130952792578,"lon":-3.0480843072962998,"e-coli":550,"enterocci":10},{"site_name":"Fleetwood","lat":53.92658273734402,"lon":-3.0199785439991538,"e-coli":760,"enterocci":32},{"site_name":"Morecambe South","lat":54.07281810643419,"lon":-2.876451312350167,"e-coli":800,"enterocci":10},{"site_name":"Morecambe North","lat":54.07744355518435,"lon":-2.8607297281368993,"e-coli":1018,"enterocci":18},{"site_name":"Walney Biggar Bank","lat":54.095008826193954,"lon":-3.258364904470261,"e-coli":4200,"enterocci":10},{"site_name":"Walney Sandy Gap","lat":54.10214902059143,"lon":-3.263169265416846,"e-coli":10000,"enterocci":10},{"site_name":"Walney West Shore","lat":54.12078224258576,"lon":-3.2716311701990253,"e-coli":6200,"enterocci":10},{"site_name":"Haverigg","lat":54.18906209796494,"lon":-3.288807219185775,"e-coli":2900,"enterocci":10},{"site_name":"Silecroft","lat":54.21893913724393,"lon":-3.3510859276218246,"e-coli":91,"enterocci":10},{"site_name":"Seascale","lat":54.39527473796973,"lon":-3.489341116655126,"e-coli":420,"enterocci":10},{"site_name":"St Bees","lat":54.48991785666253,"lon":-3.6085716633193474,"e-coli":64,"enterocci":10},{"site_name":"Allonby South","lat":54.74396016030837,"lon":-3.456453603178426,"e-coli":955,"enterocci":23},{"site_name":"Allonby","lat":54.76802840779173,"lon":-3.4346078765450008,"e-coli":3200,"enterocci":14},{"site_name":"Silloth","lat":54.86534534794312,"lon":-3.409142361300767,"e-coli":10000,"enterocci":10},{"site_name":"Southerness","lat":54.8703237333956,"lon":-3.595854360199016,"e-coli":80,"enterocci":10},{"site_name":"Sandyhills","lat":54.87834124918771,"lon":-3.7284452273628066,"e-coli":930,"enterocci":45},{"site_name":"Rockcliffe","lat":54.86460461694855,"lon":-3.796777834676888,"e-coli":940,"enterocci":20},{"site_name":"Dhoon Bay","lat":54.814219563769235,"lon":-4.090696256726537,"e-coli":1800,"enterocci":15},{"site_name":"Brighouse Bay","lat":54.78552619982993,"lon":-4.123929126367401,"e-coli":520,"enterocci":10},{"site_name":"Carrick","lat":54.82434113704814,"lon":-4.21970209844623,"e-coli":500,"enterocci":10},{"site_name":"Mossyard","lat":54.84065951228599,"lon":-4.255563024303057,"e-coli":1800,"enterocci":10},{"site_name":"Girvan","lat":55.23731059010103,"lon":-4.861518541208489,"e-coli":3700,"enterocci":15},{"site_name":"Maidens","lat":55.33811873193659,"lon":-4.8128590489613075,"e-coli":340,"enterocci":10},{"site_name":"Culzean","lat":55.34883263039617,"lon":-4.808239401397318,"e-coli":740,"enterocci":10},{"site_name":"Heads of Ayr","lat":55.43448599509577,"lon":-4.6852969717345925,"e-coli":9600,"enterocci":20},{"site_name":"Ayr (South Beach)","lat":55.46223792691198,"lon":-4.643487274120067,"e-coli":640,"enterocci":10},{"site_name":"Prestwick","lat":55.501381286301815,"lon":-4.622324943583032,"e-coli":700,"enterocci":20},{"site_name":"Troon (South Beach)","lat":55.54030790453403,"lon":-4.6628982048339775,"e-coli":240,"enterocci":10},{"site_name":"Irvine","lat":55.60157634632679,"lon":-4.688801352344053,"e-coli":390,"enterocci":30},{"site_name":"Saltcoats/Ardrossan","lat":55.639368976330395,"lon":-4.806564075179765,"e-coli":280,"enterocci":20},{"site_name":"Seamill","lat":55.685788455732066,"lon":-4.8679843134157785,"e-coli":150,"enterocci":10},{"site_name":"Largs (Pencil Beach)","lat":55.77842925823544,"lon":-4.858808686760396,"e-coli":250,"enterocci":10},{"site_name":"Millport Bay","lat":55.75276802528446,"lon":-4.923970737122841,"e-coli":1100,"enterocci":10},{"site_name":"Lunderston Bay","lat":55.93005002740913,"lon":-4.876440556939794,"e-coli":800,"enterocci":10},{"site_name":"Ettrick Bay","lat":55.84767145601943,"lon":-5.136810853219976,"e-coli":710,"enterocci":10},{"site_name":"Machrihanish","lat":55.42504293133717,"lon":-5.729634190998639,"e-coli":140,"enterocci":10},{"site_name":"Ganavan","lat":56.43889938810947,"lon":-5.469770426377775,"e-coli":200,"enterocci":15},{"site_name":"Achmelvich","lat":58.17036605291567,"lon":-5.307624083852849,"e-coli":10,"enterocci":10},{"site_name":"Thurso","lat":58.59869638536023,"lon":-3.521088064041756,"e-coli":190,"enterocci":10},{"site_name":"Dunnet","lat":58.61755946189242,"lon":-3.351388640051894,"e-coli":400,"enterocci":10},{"site_name":"Dornoch","lat":57.878013280083586,"lon":-4.0166289948109855,"e-coli":20,"enterocci":10},{"site_name":"Rosemarkie","lat":57.59345312066535,"lon":-4.111283928246566,"e-coli":290,"enterocci":10},{"site_name":"Nairn (Central)","lat":57.590199985307585,"lon":-3.8713906428709914,"e-coli":700,"enterocci":10},{"site_name":"Nairn (East)","lat":57.5935051487541,"lon":-3.8568530670076173,"e-coli":1200,"enterocci":30},{"site_name":"Findhorn","lat":57.663978334469185,"lon":-3.6181484376236157,"e-coli":1000,"enterocci":10},{"site_name":"Lossiemouth (East)","lat":57.71783339385902,"lon":-3.276569392762368,"e-coli":320,"enterocci":10},{"site_name":"Cullen Bay","lat":57.694558588502986,"lon":-2.835045589127299,"e-coli":250,"enterocci":10},{"site_name":"Inverboyndie","lat":57.67135535693975,"lon":-2.5517442649483275,"e-coli":480,"enterocci":15},{"site_name":"Rosehearty","lat":57.69862936560222,"lon":-2.112540902249415,"e-coli":180,"enterocci":10},{"site_name":"Fraserburgh (Tiger Hill)","lat":57.68061617358648,"lon":-1.9931114143986655,"e-coli":440,"enterocci":10},{"site_name":"Fraserburgh (Philorth)","lat":57.675312354761104,"lon":-1.9661193659855172,"e-coli":230,"enterocci":10},{"site_name":"Peterhead (Lido)","lat":57.496623132905384,"lon":-1.79328864918485,"e-coli":60,"enterocci":10},{"site_name":"Cruden Bay","lat":57.41147869176636,"lon":-1.8519094495413633,"e-coli":350,"enterocci":70},{"site_name":"Collieston","lat":57.34726813153441,"lon":-1.933852226991681,"e-coli":370,"enterocci":20},{"site_name":"Balmedie","lat":57.2556472910004,"lon":-2.033961948841189,"e-coli":190,"enterocci":10},{"site_name":"Aberdeen","lat":57.155486093936375,"lon":-2.0776573638037243,"e-coli":380,"enterocci":20},{"site_name":"Stonehaven","lat":56.96344458537768,"lon":-2.204720496973593,"e-coli":240,"enterocci":10},{"site_name":"Montrose","lat":56.7117202667761,"lon":-2.4450587392591867,"e-coli":70,"enterocci":10},{"site_name":"Lunan Bay","lat":56.65518284390246,"lon":-2.50234382093798,"e-coli":4400,"enterocci":10},{"site_name":"Arbroath (West Links)","lat":56.55037976775005,"lon":-2.5951321829370406,"e-coli":10000,"enterocci":10},{"site_name":"Carnoustie","lat":56.49811529513709,"lon":-2.7056614470440996,"e-coli":4400,"enterocci":10},{"site_name":"Monifieth","lat":56.47744876269969,"lon":-2.813319715830999,"e-coli":1200,"enterocci":20},{"site_name":"Broughty Ferry","lat":56.46453273429161,"lon":-2.8633543761416065,"e-coli":1600,"enterocci":10},{"site_name":"St. Andrews (West Sands)","lat":56.348868636221276,"lon":-2.8029110312519387,"e-coli":400,"enterocci":10},{"site_name":"St. Andrews (East Sands)","lat":56.336611163287124,"lon":-2.7779706480152253,"e-coli":170,"enterocci":10},{"site_name":"Kingsbarns","lat":56.30202238450151,"lon":-2.641295828495583,"e-coli":580,"enterocci":10},{"site_name":"Crail (Roome Bay)","lat":56.26136030798131,"lon":-2.61620725928317,"e-coli":10,"enterocci":10},{"site_name":"Anstruther (Billow Ness)","lat":56.2184631868831,"lon":-2.704624865754702,"e-coli":370,"enterocci":10},{"site_name":"Elie (Ruby Bay)","lat":56.185438783894284,"lon":-2.815186697795826,"e-coli":20,"enterocci":10},{"site_name":"Elie (Harbour) and Earlsferry","lat":56.18806970776399,"lon":-2.824909926962631,"e-coli":160,"enterocci":10},{"site_name":"Leven","lat":56.201352116169154,"lon":-2.97509333360361,"e-coli":340,"enterocci":30},{"site_name":"Kirkcaldy (Seafield)","lat":56.094601924074105,"lon":-3.1571612177275603,"e-coli":220,"enterocci":25},{"site_name":"Kinghorn (Harbour Beach)","lat":56.06753222108455,"lon":-3.172091353357267,"e-coli":790,"enterocci":35},{"site_name":"Kinghorn (Pettycur)","lat":56.06274651638633,"lon":-3.1830280251240617,"e-coli":1900,"enterocci":10},{"site_name":"Burntisland","lat":56.05809766741474,"lon":-3.2202867327755413,"e-coli":200,"enterocci":10},{"site_name":"Aberdour (Silver Sands)","lat":56.053133360780954,"lon":-3.284453921053972,"e-coli":310,"enterocci":10},{"site_name":"Aberdour Harbour (Black Sands)","lat":56.0510487505099,"lon":-3.29562391559976,"e-coli":200,"enterocci":15},{"site_name":"Portobello (West)","lat":55.959628759735146,"lon":-3.117746191606,"e-coli":1320,"enterocci":80},{"site_name":"Portobello (Central)","lat":55.95271868991179,"lon":-3.101820293866612,"e-coli":630,"enterocci":40},{"site_name":"Fisherrow Sands","lat":55.94623219387885,"lon":-3.07114866212871,"e-coli":7400,"enterocci":35},{"site_name":"Seton Sands","lat":55.97581739828814,"lon":-2.9191262289533793,"e-coli":1200,"enterocci":15},{"site_name":"Longniddry","lat":55.98417777329361,"lon":-2.905204233135916,"e-coli":280,"enterocci":25},{"site_name":"Gullane","lat":56.03985853929178,"lon":-2.8443595362148466,"e-coli":240,"enterocci":10},{"site_name":"Broad Sands","lat":56.06329430998471,"lon":-2.765389470480301,"e-coli":160,"enterocci":10},{"site_name":"Yellowcraig","lat":56.06518638448284,"lon":-2.780331604436037,"e-coli":290,"enterocci":40},{"site_name":"North Berwick (West)","lat":56.05989246791071,"lon":-2.72157792542928,"e-coli":840,"enterocci":10},{"site_name":"North Berwick (Milsey Bay)","lat":56.05877681232279,"lon":-2.7047440627837678,"e-coli":340,"enterocci":15},{"site_name":"Seacliff","lat":56.05261955824528,"lon":-2.6357689795811816,"e-coli":530,"enterocci":10},{"site_name":"Dunbar (Belhaven)","lat":56.003817892595926,"lon":-2.5549347486736544,"e-coli":2000,"enterocci":15},{"site_name":"Dunbar (East)","lat":56.00127246776722,"lon":-2.509793992357719,"e-coli":2400,"enterocci":15},{"site_name":"Whitesands","lat":55.98902051340214,"lon":-2.463436796885631,"e-coli":450,"enterocci":30},{"site_name":"Thorntonloch","lat":55.9620680831303,"lon":-2.395871274369803,"e-coli":480,"enterocci":10},{"site_name":"Pease Bay","lat":55.93236035796054,"lon":-2.3334663463382097,"e-coli":2500,"enterocci":10},{"site_name":"Coldingham","lat":55.8920747695441,"lon":-2.1331785988932137,"e-coli":430,"enterocci":10},{"site_name":"Eyemouth","lat":55.873847728860774,"lon":-2.090062123015182,"e-coli":4300,"enterocci":30},null,null,null,null,null,null,null,null,null,null,null,null,null,null,null,null,null,null,null,null,null,null,null,null,{"site_name":"Colwick Country Park (West Lake)","lat":52.94514352974685,"lon":-1.0981573792302204,"e-coli":460,"enterocci":14},{"site_name":"Cotswold Country Park and Beach","lat":51.66097638512744,"lon":-1.9609179215146542,"e-coli":1364,"enterocci":18},{"site_name":"Hampstead Heath (Ladies Pond)","lat":51.56672124307188,"lon":-0.16011983918399766,"e-coli":250,"enterocci":32},{"site_name":"Hampstead Heath (Mens Pond)","lat":51.56333958162649,"lon":-0.15664938067159775,"e-coli":240,"enterocci":18},{"site_name":"Hampstead Heath (Mixed Pond)","lat":51.56070280019622,"lon":-0.16627782979173591,"e-coli":2300,"enterocci":27},{"site_name":"The Serpentine - Hyde Park","lat":51.504903699784116,"lon":-0.16909513846347296,"e-coli":680,"enterocci":10},{"site_name":"Frensham Great Pond","lat":51.157312955336906,"lon":-0.7918220468618226,"e-coli":800,"enterocci":18},{"site_name":"Henleaze Lake","lat":51.49462417430454,"lon":-2.6057046910274173,"e-coli":660,"enterocci":68},{"site_name":"Llyn Padarn","lat":53.12583323061952,"lon":-4.132646972566193,"e-coli":73,"enterocci":10},{"site_name":"Windermere, Lakeside YMCA","lat":54.30086775586768,"lon":-2.9619042558265463,"e-coli":36,"enterocci":10},{"site_name":"Windermere, Millerground Landing","lat":54.38149941391097,"lon":-2.9221865637650355,"e-coli":55,"enterocci":10},{"site_name":"Windermere, Fellfoot","lat":54.274508820026284,"lon":-2.9537651144565906,"e-coli":182,"enterocci":10},{"site_name":"Luss Bay","lat":56.104201334234084,"lon":-4.638276590520697,"e-coli":670,"enterocci":25},{"site_name":"Dores","lat":57.38372587813293,"lon":-4.335948568833101,"e-coli":3600,"enterocci":10},{"site_name":"Loch Morlich","lat":57.16703193009897,"lon":-3.7022136719519567,"e-coli":400,"enterocci":30}]